City ID,City,Cloudiness,Country,Date,Humidity,Lat,Lng,Max Temp,Wind Speed
0,Mossamedes,100,AO,1611461997,70,-15.1961,12.1522,75.02,5.23
1,Ishigaki,75,JP,1611462200,68,24.3448,124.1572,66.2,18.41
2,Lorengau,81,PG,1611462200,62,-2.0226,147.2712,85.55,3.02
3,Rikitea,0,PF,1611462200,65,-23.1203,-134.9692,79.54,7.52
4,Svetlyy Yar,0,RU,1611462200,93,48.4748,44.781,33.01,8.95
5,Chui,2,UY,1611462200,95,-33.6971,-53.4616,69.44,5.73
6,Mataura,100,NZ,1611462200,78,-46.1927,168.8643,60.01,21.99
7,Severo-Kuril'sk,93,RU,1611462201,93,50.6789,156.125,19.96,20.94
8,El Salvador,0,SV,1611462201,88,13.8333,-88.9167,73.4,2.3
9,Hithadhoo,72,MV,1611462201,71,-0.6,73.0833,81.63,4.52
10,Tiarei,40,PF,1611462201,61,-17.5333,-149.3333,82.4,3.44
11,Kaseda-shirakame,75,JP,1611462201,67,31.4167,130.3167,60.8,9.22
12,Butaritari,68,KI,1611462201,78,3.0707,172.7902,79.95,8.66
13,Saint-Philippe,75,RE,1611461997,62,-21.3585,55.7679,86.0,4.61
14,Ahuas,15,HN,1611462201,95,15.4759,-84.3553,72.03,2.46
15,Huautla,100,MX,1611462201,99,21.0333,-98.2833,65.39,4.0
16,Myanaung,5,MM,1611462201,36,18.2833,95.3167,78.22,2.77
17,Biskamzha,100,RU,1611462201,89,53.4497,89.5272,3.87,6.71
18,Vila Franca do Campo,75,PT,1611462007,94,37.7167,-25.4333,62.6,24.16
19,Caravelas,93,BR,1611461989,87,-17.7125,-39.2481,73.92,3.78
20,Busselton,43,AU,1611462201,57,-33.65,115.3333,73.99,5.01
21,Manakara,97,MG,1611462201,89,-22.1333,48.0167,78.39,2.44
22,Tuktoyaktuk,1,CA,1611462202,76,69.4541,-133.0374,-22.0,11.5
23,Graaff-Reinet,99,ZA,1611462202,77,-32.2522,24.5308,66.0,3.0
24,Atuona,9,PF,1611462202,80,-9.8,-139.0333,78.15,17.83
25,Punta Arenas,75,CL,1611461978,62,-53.15,-70.9167,51.8,16.11
26,Saskylakh,24,RU,1611462202,81,71.9167,114.0833,-34.69,6.35
27,Bredasdorp,32,ZA,1611462202,82,-34.5322,20.0403,55.4,5.75
28,Alpoyeca,100,MX,1611462202,64,17.6667,-98.5167,70.3,4.94
29,Port Alfred,94,ZA,1611462202,95,-33.5906,26.891,66.99,7.0
30,Sakhnovshchyna,100,UA,1611462202,94,49.1517,35.872,37.08,11.43
31,Cape Town,20,ZA,1611462148,67,-33.9258,18.4232,64.99,13.8
32,Jamestown,90,US,1611462203,86,42.097,-79.2353,17.6,4.61
33,Clyde River,1,CA,1611462203,84,70.4692,-68.5914,-4.0,2.3
34,Boende,64,CD,1611462203,88,-0.2167,20.8667,71.56,2.44
35,Saint Paul Harbor,1,US,1611462203,60,57.79,-152.4072,39.2,19.57
36,Kapaa,75,US,1611462203,88,22.0752,-159.319,73.4,17.27
37,Lebu,0,CL,1611462203,86,-37.6167,-73.65,57.27,17.0
38,George Town,20,MY,1611461941,66,5.4112,100.3354,87.01,6.91
39,Upernavik,100,GL,1611461979,83,72.7868,-56.1549,20.19,6.89
40,Mahébourg,40,MU,1611461999,83,-20.4081,57.7,78.8,6.33
41,Albany,0,US,1611462056,54,42.6001,-73.9662,15.01,5.01
42,Moosomin,0,CA,1611462203,86,50.1333,-101.6677,-19.23,10.16
43,Kudahuvadhoo,81,MV,1611462039,66,2.6708,72.8944,83.37,7.72
44,Lahaina,40,US,1611462203,61,20.8783,-156.6825,77.0,19.57
45,Kathmandu,20,NP,1611461988,81,27.7167,85.3167,50.0,1.36
46,Eyl,97,SO,1611462204,74,7.9803,49.8164,71.15,18.19
47,Margate,25,GB,1611462204,81,51.3813,1.3862,34.0,14.74
48,Itacoatiara,12,BR,1611462179,89,-3.1431,-58.4442,74.21,1.83
49,Lompoc,40,US,1611462204,81,34.6391,-120.4579,48.2,4.61
50,Iqaluit,1,CA,1611461999,78,63.7506,-68.5145,6.8,17.27
51,Kaeo,1,NZ,1611462077,55,-35.1,173.7833,79.0,14.0
52,Kirakira,97,SB,1611462204,60,-10.4544,161.9205,84.65,6.93
53,Lagoa,84,PT,1611462204,89,39.05,-27.9833,61.75,31.9
54,Guerrero Negro,24,MX,1611462040,73,27.9769,-114.0611,57.78,8.9
55,Alekseyevsk,94,RU,1611462204,86,57.8406,108.3492,-10.89,1.9
56,Barrow,1,US,1611462204,78,71.2906,-156.7887,1.4,18.41
57,New Norfolk,100,AU,1611462204,18,-42.7826,147.0587,89.01,1.99
58,Mar del Plata,0,AR,1611462205,88,-38.0023,-57.5575,75.99,5.75
59,Cherskiy,100,RU,1611462205,86,68.75,161.3,-24.25,7.83
60,Codrington,100,AU,1611462205,15,-38.2667,141.9667,100.31,6.96
61,Saldanha,0,ZA,1611462205,67,-33.0117,17.9442,59.0,8.05
62,Sinnamary,100,GF,1611462205,89,5.3833,-52.95,77.32,11.74
63,Marystown,77,CA,1611462205,94,47.1666,-55.1483,28.74,16.89
64,Torbay,20,CA,1611462205,80,47.6666,-52.7314,24.01,16.11
65,Bengkulu,92,ID,1611462205,53,-3.8004,102.2655,88.93,4.29
66,Iquique,0,CL,1611462122,88,-20.2208,-70.1431,66.2,0.22
67,Puerto Ayora,42,EC,1611462205,94,-0.7393,-90.3518,75.99,1.99
68,Batagay-Alyta,96,RU,1611462051,76,67.8006,130.4114,-36.04,0.47
69,São João da Barra,0,BR,1611462022,84,-21.6403,-41.0511,74.08,5.17
70,Ushuaia,40,AR,1611462206,44,-54.8,-68.3,57.2,23.02
71,Hermanus,23,ZA,1611462206,69,-34.4187,19.2345,61.0,5.01
72,Kahului,40,US,1611462206,61,20.8947,-156.47,77.0,19.57
73,Jurm,0,AF,1611462206,69,36.8648,70.8342,21.02,5.84
74,Doha,0,QA,1611462006,82,25.2867,51.5333,59.0,5.75
75,Lüderitz,94,NA,1611461976,56,-26.6481,15.1594,69.91,25.37
76,Bluff,92,NZ,1611462206,78,-46.6,168.3333,60.01,21.99
77,Castro,100,BR,1611462206,96,-24.7911,-50.0119,63.05,5.97
78,Pangnirtung,37,CA,1611462206,78,66.1451,-65.7125,15.06,2.68
79,Avarua,20,CK,1611462206,66,-21.2078,-159.775,86.0,12.66
80,Takahata,75,JP,1611462081,70,38.0025,140.1911,37.4,4.61
81,Goodyear,40,US,1611461960,82,33.4353,-112.3582,55.0,4.61
82,Harvard,100,US,1611462206,72,42.4222,-88.6137,25.0,7.72
83,East London,20,ZA,1611461941,83,-33.0153,27.9116,68.0,16.11
84,Hays,100,US,1611462207,95,30.0502,-98.0336,61.0,4.21
85,Airai,89,TL,1611462207,78,-8.9266,125.4092,72.97,4.07
86,Tual,84,ID,1611462207,72,-5.6667,132.75,84.6,11.61
87,Itaocara,73,BR,1611461977,91,-21.6692,-42.0761,68.0,1.9
88,Pacifica,1,US,1611462055,71,37.6138,-122.4869,51.8,9.22
89,Hong Kong,27,HK,1611462121,81,22.2855,114.1577,66.0,3.0
90,Mehrān,0,IR,1611462207,59,33.1222,46.1646,28.4,6.91
91,Toora-Khem,100,RU,1611462207,87,52.4675,96.11,-0.9,1.52
92,Esperance,90,AU,1611462207,53,-33.8667,121.9,73.4,9.22
93,Sakakah,0,SA,1611462207,44,29.9697,40.2064,37.4,3.44
94,Vardø,100,NO,1611462207,95,70.3705,31.1107,19.89,27.94
95,São Filipe,46,CV,1611462208,64,14.8961,-24.4956,72.46,4.27
96,Fukuechō,75,JP,1611462208,67,32.6881,128.8419,55.4,23.02
97,Ipixuna,40,BR,1611462208,88,-1.7625,-48.8043,77.0,3.44
98,Soto la Marina,62,MX,1611462208,90,23.7667,-98.2167,72.0,3.0
99,Hay River,4,CA,1611462120,69,60.8156,-115.7999,-20.2,4.61
100,Coyhaique,0,CL,1611462042,71,-45.5752,-72.0662,48.2,4.61
101,Sémbé,98,CG,1611462208,84,1.6481,14.5806,71.51,3.65
102,Aden,62,YE,1611461991,72,12.7794,45.0367,74.98,19.44
103,Nuevo Progreso,100,MX,1611462208,66,23.1667,-97.95,73.99,1.01
104,Conselheiro Lafaiete,81,BR,1611462208,96,-20.6603,-43.7861,62.96,4.18
105,Kedrovyy,40,RU,1611462208,84,56.1667,91.8167,-2.2,4.47
106,Aklavik,87,CA,1611462208,76,68.2191,-135.0107,-16.6,8.05
107,Yuncheng,100,CN,1611462209,57,35.0231,110.9928,45.39,8.19
108,Tezu,70,IN,1611462209,34,27.9167,96.1667,71.13,3.04
109,Haverfordwest,75,GB,1611462209,93,51.8017,-4.9691,35.6,27.63
110,Vaini,75,TO,1611461976,83,-21.2,-175.2,82.4,5.75
111,Thompson,90,CA,1611462209,76,55.7435,-97.8558,-14.8,9.22
112,Saint George,75,US,1611462026,70,37.1041,-113.5841,43.0,3.44
113,Adjumani,49,UG,1611462209,60,3.3779,31.7909,70.39,0.36
114,Dikson,93,RU,1611462209,90,73.5069,80.5464,-15.88,8.97
115,Grindavik,40,IS,1611462209,74,63.8424,-22.4338,30.2,25.32
116,Uvinza,100,TZ,1611462209,90,-5.1036,30.3911,64.9,1.63
117,Khatanga,100,RU,1611462209,85,71.9667,102.5,-24.84,11.21
118,Abu Dhabi,0,AE,1611461957,77,24.4667,54.3667,62.6,12.75
119,Ostrovnoy,80,RU,1611462209,91,68.0531,39.5131,0.5,11.41
120,Matagami,1,CA,1611462210,84,49.7502,-77.6328,-7.6,9.22
121,Touros,40,BR,1611462210,83,-5.1989,-35.4608,77.0,4.61
122,Belyy Yar,40,RU,1611462210,78,53.6039,91.3903,3.2,3.85
123,Lázaro Cárdenas,91,MX,1611462210,83,17.9583,-102.2,75.11,2.44
124,Huarmey,93,PE,1611462210,78,-10.0681,-78.1522,71.46,5.88
125,Hobart,40,AU,1611461962,47,-42.8794,147.3294,89.01,14.97
126,Bandarbeyla,58,SO,1611462210,71,9.4942,50.8122,72.36,18.75
127,Kindu,100,CD,1611462210,96,-2.95,25.95,70.43,2.13
128,Souillac,40,MU,1611462210,83,-20.5167,57.5167,78.8,6.46
129,Faanui,0,PF,1611462210,74,-16.4833,-151.75,81.28,12.5
130,Flinders,43,AU,1611462210,59,-34.5833,150.8552,87.01,10.0
131,Necochea,1,AR,1611462210,71,-38.5473,-58.7368,75.99,10.0
132,Provideniya,1,RU,1611462210,83,64.3833,-173.3,6.69,2.3
133,Birao,74,CF,1611462210,22,10.2849,22.7882,69.58,9.31
134,Lafayette,90,US,1611462099,88,30.2335,-92.0668,59.0,5.75
135,Santa Isabel Rio Negro,65,BR,1611462211,98,-0.4139,-65.0192,72.82,1.66
136,Husavik,90,IS,1611462047,93,66.0449,-17.3389,28.4,14.97
137,Klaksvík,100,FO,1611462211,87,62.2266,-6.589,35.6,9.22
138,Vanimo,100,PG,1611462211,62,-2.6741,141.3028,86.81,6.4
139,Hokitika,100,NZ,1611462211,75,-42.7167,170.9667,58.15,7.36
140,Shahr-e Bābak,0,IR,1611462211,72,30.1165,55.1186,32.63,0.13
141,Zomba,100,MW,1611462211,96,-15.386,35.3188,66.38,2.39
142,San Patricio,90,US,1611462211,100,28.017,-97.5169,69.8,4.61
143,Katsuura,75,JP,1611462211,93,35.1333,140.3,46.99,20.71
144,Olafsvik,91,IS,1611462211,91,64.8945,-23.7142,29.32,35.34
145,Luangwa,100,ZM,1611462211,89,-15.6167,30.4167,71.91,2.77
146,Port Moresby,40,PG,1611462161,62,-9.4431,147.1797,91.4,11.5
147,Saint-Pierre,75,RE,1611462212,62,-21.3393,55.4781,86.0,4.61
148,Port Hardy,90,CA,1611462212,81,50.6996,-127.4199,39.2,11.5
149,Hilo,40,US,1611462212,83,19.7297,-155.09,71.6,8.05
150,Cobija,95,BO,1611462212,98,-11.0267,-68.7692,69.93,2.48
151,Laas,41,IT,1611462212,100,46.6166,10.7002,27.0,4.54
152,Rodolfo Sánchez Taboada,100,MX,1611462212,89,31.7167,-116.5667,50.0,3.0
153,Longyan,44,CN,1611462212,45,25.1072,117.0225,71.55,2.89
154,Shelburne,90,CA,1611462212,92,44.0787,-80.2041,21.2,5.12
155,Anamur,20,TR,1611461946,75,36.0751,32.8369,42.8,5.75
156,Yellowknife,20,CA,1611462212,75,62.456,-114.3525,-31.0,4.61
157,Nikolskoye,90,RU,1611462212,93,59.7035,30.7861,34.0,8.95
158,Beloha,1,MG,1611462212,76,-25.1667,45.05,78.73,6.33
159,Bethel,1,US,1611462213,45,41.3712,-73.414,21.2,4.61
160,Morón,0,AR,1611462208,70,-34.6534,-58.6198,82.0,3.0
161,Ribeira Grande,89,PT,1611462213,88,38.5167,-28.7,62.53,22.55
162,Satipo,100,PE,1611462213,83,-11.2522,-74.6386,68.65,1.83
163,Carnarvon,4,AU,1611462213,44,-24.8667,113.6333,82.4,14.97
164,Ancud,0,CL,1611462020,71,-41.8697,-73.8203,53.01,16.11
165,Byron Bay,40,AU,1611462048,65,-28.65,153.6167,82.4,14.97
166,Kadiri,12,IN,1611462213,56,14.1167,78.1667,74.39,5.82
167,Abay,90,KZ,1611462213,77,49.6311,72.8539,-5.8,4.47
168,Tasiilaq,27,GL,1611462017,52,65.6145,-37.6368,12.2,3.44
169,Buenos Aires,0,AR,1611462042,78,-34.6132,-58.3772,82.0,12.66
170,Smithers,90,CA,1611462213,79,54.7804,-127.1743,15.8,3.44
171,Avera,75,US,1611462213,65,33.194,-82.5271,45.0,4.61
172,Maniitsoq,0,GL,1611461999,77,65.4167,-52.9,16.88,4.76
173,Varhaug,0,NO,1611462214,86,58.6147,5.6457,30.2,8.05
174,Colón,99,PA,1611462214,81,9.3592,-79.9014,79.0,11.01
175,Werda,15,BW,1611462214,23,-25.2667,23.2833,76.69,6.58
176,Kempten (Allgäu),88,DE,1611462214,90,47.7267,10.3139,32.0,4.0
177,Departamento de Maldonado,0,UY,1611462214,83,-34.6667,-54.9167,75.0,11.5
178,Hofn,100,IS,1611462214,89,64.2539,-15.2082,32.32,25.41
179,Troitskoye,100,RU,1611462214,93,52.9821,84.6757,4.03,8.01
180,Borogontsy,100,RU,1611462214,74,62.6683,131.1683,-50.13,4.88
181,Sibolga,21,ID,1611462214,59,1.7427,98.7792,86.43,4.03
182,Hamilton,1,US,1611462214,68,39.1834,-84.5333,28.0,4.61
183,Irtyshskiy,5,RU,1611462214,82,58.3333,68.1333,-36.98,4.23
184,Panjāb,0,AF,1611462214,71,34.388,67.0233,6.03,5.39
185,Barcelona,0,ES,1611461955,58,41.3888,2.159,57.99,10.36
186,Honningsvåg,99,NO,1611462215,93,70.9821,25.9704,21.4,29.86
187,Luanda,20,AO,1611462169,88,-8.8368,13.2343,75.2,3.44
188,Riyadh,0,SA,1611462054,39,24.6877,46.7219,44.6,3.0
189,Karabash,100,RU,1611462215,91,55.4808,60.2157,-3.05,3.33
190,Majene,100,ID,1611462215,68,-3.5403,118.9707,82.92,3.15
191,Hasaki,75,JP,1611462215,100,35.7333,140.8333,45.0,17.27
192,Waipawa,63,NZ,1611462215,63,-41.4122,175.5153,66.2,29.93
193,Killin,90,US,1611462215,81,33.6123,-91.7412,46.4,3.44
194,Visby,100,SE,1611462216,18,57.6409,18.296,36.0,1.01
195,Ponta do Sol,100,PT,1611461979,78,32.6667,-17.1,59.0,1.01
196,Taunggyi,0,MM,1611461953,43,20.7833,97.0333,69.58,3.8
197,Sitka,90,US,1611462166,100,57.0531,-135.33,35.6,4.61
198,Luena,100,AO,1611462216,98,-11.7833,19.9167,62.31,3.0
199,Starkville,90,US,1611462216,81,33.4504,-88.8184,48.0,4.43
200,Port Blair,3,IN,1611462082,62,11.6667,92.75,80.65,10.85
201,Ilulissat,38,GL,1611462216,48,69.2167,-51.1,15.8,16.11
202,Oranjestad,20,AW,1611462216,83,12.524,-70.027,80.6,16.11
203,Lavrentiya,91,RU,1611462216,85,65.5833,-171.0,-1.53,5.61
204,Longyearbyen,75,SJ,1611462216,73,78.2186,15.6401,12.2,11.5
205,Honiara,100,SB,1611462063,58,-9.4333,159.95,85.89,5.91
206,Narsaq,0,GL,1611462217,29,60.9167,-46.05,28.4,25.32
207,Aksu,0,CN,1611461994,76,41.1231,80.2644,26.87,4.29
208,Qaanaaq,69,GL,1611462217,77,77.484,-69.3632,11.88,1.48
209,North Platte,90,US,1611462217,86,41.1239,-100.7654,28.4,5.75
210,Zhigansk,53,RU,1611462002,74,66.7697,123.3711,-51.75,4.43
211,Pangkalanbuun,100,ID,1611462217,68,-2.6833,111.6167,83.55,1.45
212,Aksay,0,RU,1611462217,93,47.26,39.87,36.0,6.71
213,Silopi,0,TR,1611462217,86,37.2497,42.4694,28.4,8.05
214,Deputatsky,99,RU,1611462217,84,69.3,139.9,-34.67,2.84
215,Gunjur,80,GM,1611462217,72,13.2019,-16.7339,64.4,1.14
216,Tuy Hoa,23,VN,1611462217,75,13.0833,109.3,74.97,8.95
217,San Ignacio,0,BZ,1611462038,94,17.1561,-89.0714,73.99,6.91
218,Turaif,0,SA,1611462089,80,31.6725,38.6637,32.0,9.22
219,Gorontalo,100,ID,1611462217,60,0.5412,123.0595,87.98,2.91
220,Novy Urengoy,0,RU,1611462218,77,66.0833,76.6333,-43.53,3.74
221,Fairbanks,75,US,1611461952,78,64.8378,-147.7164,19.99,3.22
222,Tyukalinsk,9,RU,1611462218,82,55.8732,72.1967,-37.91,4.65
223,Channel-Port aux Basques,100,CA,1611462218,94,47.5702,-59.1367,27.37,20.83
224,Wanning,0,CN,1611462218,65,18.8003,110.3967,73.94,5.21
225,Sinjār,0,IQ,1611462218,73,36.3209,41.8754,35.64,1.19
226,Kulhudhuffushi,9,MV,1611462218,72,6.6221,73.07,82.02,9.19
227,Barabinsk,9,RU,1611462218,80,55.3571,78.357,-42.34,6.51
228,Grand-Santi,100,GF,1611462070,97,4.25,-54.3833,71.91,2.04
229,Lipin Bor,100,RU,1611462012,98,60.2622,37.9763,33.53,7.78
230,Bumba,100,CD,1611462218,56,2.1833,22.4667,70.32,1.7
231,Novobiryusinskiy,47,RU,1611462218,92,56.9578,97.7076,-1.52,2.93
232,Talnakh,45,RU,1611462067,64,69.4865,88.3972,-35.84,2.17
233,Port Lincoln,65,AU,1611462218,34,-34.7333,135.8667,84.94,11.23
234,Tsimmerbude,75,RU,1611462219,93,54.675,20.1347,35.6,8.95
235,Buraidah,0,SA,1611462135,53,26.326,43.975,44.6,3.44
236,Tilichiki,2,RU,1611462219,89,60.4667,166.1,-11.83,8.68
237,San Angelo,75,US,1611462154,93,31.4638,-100.437,57.0,3.44
238,Tiksi,56,RU,1611462219,79,71.6872,128.8694,-41.33,5.12
239,Nautla,95,MX,1611462219,89,20.2167,-96.7833,71.67,8.99
240,Huilong,87,CN,1611462219,75,31.8111,121.655,52.0,1.99
241,Samarai,93,PG,1611462060,72,-10.6167,150.6667,83.82,4.52
242,Los Algarrobos,93,PA,1611462219,71,8.5,-82.4333,64.0,7.0
243,Comodoro Rivadavia,0,AR,1611462219,67,-45.8667,-67.5,57.2,6.91
244,Yerbogachën,100,RU,1611462039,80,61.2767,108.0108,-37.01,2.21
245,Port Elizabeth,0,ZA,1611462219,83,-33.918,25.5701,68.0,20.71
246,Krasnotorka,100,UA,1611462219,89,48.682,37.5327,38.07,12.75
247,Yozgat Province,100,TR,1611462220,83,39.5833,35.3333,28.18,2.62
248,Cabo San Lucas,10,MX,1611462220,91,22.8909,-109.9124,64.99,8.23
249,Zinder,0,NE,1611462220,29,13.8072,8.9881,58.3,11.72
250,Praia da Vitória,98,PT,1611462220,96,38.7333,-27.0667,61.0,15.01
251,Kaitangata,93,NZ,1611462220,62,-46.2817,169.8464,61.0,13.0
252,Iseyin,77,NG,1611462220,78,7.9667,3.6,69.19,3.38
253,Ürümqi,20,CN,1611462220,85,43.801,87.6005,14.0,4.47
254,Qinnan,8,CN,1611462220,73,33.2531,119.9133,49.59,6.22
255,Yabrūd,0,SY,1611462220,68,33.9674,36.6574,36.0,6.91
256,Savelugu,36,GH,1611462220,21,9.6244,-0.8253,69.85,5.88
257,Amuntai,96,ID,1611462220,55,-2.4177,115.2494,89.85,2.46
258,Mount Isa,16,AU,1611462220,26,-20.7333,139.5,96.8,11.5
259,Tautira,40,PF,1611462221,61,-17.7333,-149.15,82.4,3.44
260,Villaviciosa,97,ES,1611462221,87,43.4813,-5.4357,48.99,8.99
261,Mayumba,99,GA,1611462063,88,-3.432,10.6554,75.99,3.53
262,Beringovskiy,95,RU,1611462221,88,63.05,179.3167,-4.16,3.2
263,Pitimbu,0,BR,1611462221,94,-7.4706,-34.8086,75.2,3.44
264,Hauterive,90,FR,1611462221,80,46.0901,3.4459,35.6,5.75
265,Alibag,6,IN,1611461957,53,18.6411,72.8792,78.8,3.44
266,Salalah,0,OM,1611462094,34,17.0151,54.0924,68.0,13.8
267,Aksha,99,RU,1611462221,89,50.2814,113.2867,17.78,0.89
268,Daur,0,PK,1611462221,87,26.4583,68.3192,41.0,9.08
269,Artyom,0,AZ,1611462221,93,40.4723,50.333,32.0,6.91
270,Beruwala,49,LK,1611462221,72,6.4788,79.9828,80.98,2.75
271,Darovskoy,100,RU,1611462222,98,58.77,47.9564,24.85,3.42
272,Constitución,4,CL,1611462222,88,-35.3333,-72.4167,57.97,1.36
273,Nalgonda,0,IN,1611462222,54,17.05,79.2667,77.36,8.08
274,Bambanglipuro,100,ID,1611462222,63,-7.95,110.2833,85.87,6.13
275,Arman',98,RU,1611462222,80,59.7,150.1667,-10.82,10.0
276,Kotlyarevskaya,0,RU,1611462222,68,43.5734,44.0613,26.6,2.24
277,Kumul,77,CN,1611462222,83,42.8,93.45,24.66,9.75
278,Taltal,0,CL,1611462222,74,-25.4,-70.4833,64.94,1.54
279,Altinho,90,BR,1611462222,94,-8.4897,-36.0594,68.4,4.85
280,Morgan City,90,US,1611462222,100,29.6994,-91.2068,59.0,8.05
281,Mahibadhoo,56,MV,1611462222,66,3.7833,72.9667,83.44,10.36
282,Makkah al Mukarramah,0,SA,1611462222,47,21.4267,39.8261,70.29,1.57
283,Canutama,76,BR,1611462222,94,-6.5339,-64.3831,73.33,0.83
284,Vostok,0,RU,1611462222,90,46.4856,135.8833,21.67,4.41
285,Nome,90,US,1611461992,86,64.5011,-165.4064,26.6,5.75
286,Genhe,100,CN,1611462223,93,50.7833,121.5167,14.76,1.5
287,Palmer,0,US,1611462223,60,42.1584,-72.3287,17.01,3.0
288,Fortuna,90,US,1611462017,93,40.5982,-124.1573,46.99,10.2
289,Merauke,89,ID,1611462223,64,-8.4667,140.3333,87.64,9.82
290,Saryg-Sep,100,RU,1611462223,87,51.5,95.6,6.96,0.87
291,Kariya,75,JP,1611462223,87,34.75,134.4,48.0,4.61
292,Trairi,100,BR,1611462223,83,-3.2778,-39.2689,78.01,11.18
293,Lodja,100,CD,1611462223,97,-3.4833,23.4333,69.64,3.53
294,Haines Junction,100,CA,1611462223,92,60.7522,-137.5108,8.6,2.77
295,Tura,85,IN,1611462075,41,25.5198,90.2201,71.24,2.1
296,Zhoucheng,87,CN,1611462223,1,35.9122,116.3117,48.99,2.66
297,Lata,72,PT,1611462223,92,40.1629,-8.3327,51.01,6.64
298,Hailar,85,CN,1611462224,92,49.2,119.7,8.83,4.07
299,Rome,1,US,1611462133,85,43.2128,-75.4557,7.0,5.75
300,Cidreira,0,BR,1611462224,85,-30.1811,-50.2056,74.7,14.94
301,Korla,100,CN,1611462224,86,41.7597,86.1469,27.16,6.15
302,Karratha,57,AU,1611462224,30,-20.7377,116.8463,95.34,16.96
303,Twin Falls,1,US,1611462224,73,42.3505,-114.6445,21.2,10.36
304,Wagar,23,SD,1611462224,90,16.1525,36.2032,64.35,8.19
305,Loandjili,20,CG,1611462224,100,-4.7561,11.8578,73.4,2.3
306,Port Macquarie,0,AU,1611462224,44,-31.4333,152.9167,90.0,1.99
307,Henties Bay,100,NA,1611462224,90,-22.116,14.2845,70.0,5.61
308,Caldas Novas,97,BR,1611462029,83,-17.7417,-48.625,66.9,4.12
309,Semey,90,KZ,1611462225,84,50.4111,80.2275,-9.4,6.71
310,Mabaruma,76,GY,1611462225,94,8.2,-59.7833,71.64,2.1
311,Imeni Poliny Osipenko,58,RU,1611462225,89,52.4201,136.4853,-2.11,4.7
312,Cap Malheureux,3,MU,1611462225,69,-19.9842,57.6142,84.0,1.99
313,Hailey,90,US,1611462210,93,43.5196,-114.3153,24.8,6.91
314,Waterloo,90,CA,1611462225,86,43.4668,-80.5164,18.0,4.61
315,Norman Wells,90,CA,1611462225,84,65.282,-126.8329,-14.8,3.44
316,Vao,100,NC,1611462225,80,-22.6667,167.4833,75.69,24.38
317,Trabzon Province,0,TR,1611461971,60,40.9167,39.8333,41.0,10.25
318,Bonfim,85,BR,1611462225,77,3.0833,-59.95,77.13,8.7
319,Ahipara,6,NZ,1611462225,70,-35.1667,173.1667,70.29,11.14
320,Arraial do Cabo,65,BR,1611462225,88,-22.9661,-42.0278,74.89,14.61
321,Burnie,100,AU,1611462225,52,-41.0667,145.9167,71.01,8.99
322,Isangel,90,VU,1611462035,89,-19.55,169.2667,82.4,5.82
323,Pathein,17,MM,1611462225,40,16.7833,94.7333,79.18,4.94
324,Salinópolis,90,BR,1611462226,84,-0.6136,-47.3561,79.52,11.12
325,Sept-Îles,100,CA,1611462226,69,50.2001,-66.3821,34.0,14.97
326,Kikwit,100,CD,1611462200,88,-5.041,18.8162,71.2,2.06
327,Sfântu Gheorghe,100,RO,1611462226,82,45.8667,25.7833,37.0,1.99
328,Asău,100,RO,1611462226,67,46.4333,26.4,35.01,4.59
329,Hualmay,87,PE,1611462226,80,-11.0964,-77.6139,71.02,6.04
330,Alta Floresta,98,BR,1611462226,94,-9.8756,-56.0861,71.49,1.1
331,Aranda de Duero,100,ES,1611462226,80,41.6704,-3.6892,43.72,25.77
332,Black River,20,JM,1611462226,83,18.0264,-77.8487,77.0,2.3
333,Magugu,100,TZ,1611462026,92,-4.0167,35.7667,63.66,2.08
334,Dukat,100,RU,1611462226,80,62.55,155.55,-33.95,4.18
335,Arys,75,KZ,1611462226,80,42.4252,68.795,30.2,4.47
336,Buala,100,SB,1611462226,63,-8.145,159.5921,85.6,5.59
337,Charter Township of Clinton,39,US,1611461962,73,42.587,-82.9199,21.99,4.36
338,Ust-Maya,100,RU,1611462227,78,60.4167,134.5333,-41.69,4.7
339,Kolokani,19,ML,1611462227,25,13.5728,-8.0339,62.29,9.53
340,Barra do Garças,96,BR,1611462227,90,-15.89,-52.2567,72.25,1.25
341,Isla Mujeres,20,MX,1611462227,78,21.2311,-86.731,78.01,6.91
342,Kayes,0,ML,1611462227,21,14.0,-11.0,65.39,3.83
343,Nipawin,1,CA,1611462227,76,53.3668,-104.0009,-14.8,8.05
344,Adrar,0,MR,1611462227,24,20.5022,-10.0711,61.11,9.57
345,Wewak,100,PG,1611462227,69,-3.5534,143.6268,84.92,8.75
346,San Cristobal,75,VE,1611462227,81,7.7669,-72.225,65.37,2.35
347,Kwang Binh,83,VN,1611462227,77,17.4833,106.6,72.21,6.93
348,Te Anau,100,NZ,1611462227,86,-45.4167,167.7167,55.92,7.09
349,Torrijos,63,ES,1611462228,78,39.9819,-4.2835,50.0,20.83
350,Ubatã,100,BR,1611462228,96,-14.2139,-39.5228,69.76,1.14
351,Mayo,1,US,1611462228,54,38.8876,-76.5119,28.0,13.29
352,Mae Hong Son,0,TH,1611462228,56,19.3003,97.9685,73.4,2.26
353,Belmonte,40,BR,1611462228,88,-15.8631,-38.8828,73.4,3.44
354,Pemangkat,100,ID,1611462228,75,1.1667,108.9667,81.27,5.06
355,Qasigiannguit,29,GL,1611462050,48,68.8193,-51.1922,15.8,16.11
356,Shingū,75,JP,1611462228,93,33.7333,135.9833,51.8,9.22
357,Oddur,5,SO,1611462228,74,4.1213,43.8894,67.53,19.33
358,Arrondissement de Libourne,90,FR,1611462228,100,44.9167,-0.25,42.01,8.05
359,Catió,0,GW,1611462228,74,11.2833,-15.25,65.52,2.89
360,Leningradskiy,0,RU,1611462228,79,69.3833,178.4167,-17.16,2.24
361,Dohad,0,IN,1611462228,49,22.8333,74.2667,69.6,6.31
362,Mandurah,75,AU,1611462228,57,-32.55,115.7,79.0,20.71
363,Birobidzhan,100,RU,1611462229,88,48.8,132.95,11.19,2.91
364,Kamiiso,40,JP,1611462229,70,41.8167,140.65,37.4,4.61
365,Harboøre,98,DK,1611462229,95,56.6175,8.1807,35.01,11.16
366,Bataiporã,100,BR,1611462229,90,-22.2953,-53.2711,71.17,4.43
367,Ukiah,1,US,1611462229,81,39.1502,-123.2078,43.0,2.26
368,Bambous Virieux,40,MU,1611462033,83,-20.3428,57.7575,84.0,7.85
369,Vestmannaeyjar,85,IS,1611462229,85,63.4427,-20.2734,32.99,22.64
370,Mandalgovi,88,MN,1611462229,90,45.7625,106.2708,19.22,10.04
371,Brae,75,GB,1611462229,81,60.3964,-1.353,37.4,17.27
372,Marshall,40,US,1611462229,45,34.3834,-86.3333,46.0,5.75
373,Ixtapa,1,MX,1611462229,94,20.7,-105.2,69.01,2.08
374,Yatou,88,CN,1611462229,82,37.15,122.3833,44.26,5.44
375,Tegul'det,100,RU,1611462229,89,57.3064,88.1667,-12.03,5.84
376,Lātehār,0,IN,1611462229,22,23.75,84.5,74.82,3.91
377,Geraldton,14,AU,1611462230,53,-28.7667,114.6,77.0,13.8
378,Rūdbār,0,AF,1611462230,59,30.15,62.6,37.38,2.44
379,Kambove,100,CD,1611462230,100,-10.8764,26.5969,61.77,3.76
380,Ribeira Brava,100,PT,1611462230,89,32.65,-17.0667,59.0,3.0
381,Atar,22,MR,1611462230,24,20.5169,-13.0499,63.5,8.19
382,Udachny,52,RU,1611462230,79,66.4167,112.4,-37.62,3.36
383,Bydgoszcz,75,PL,1611462230,93,53.1235,18.0076,35.01,1.14
384,Makakilo City,1,US,1611462120,69,21.3469,-158.0858,78.01,11.5
385,Kavieng,71,PG,1611462230,63,-2.5744,150.7967,85.37,5.57
386,Visnes,20,NO,1611462230,93,59.3556,5.2242,33.01,8.05
387,Kushnarenkovo,90,RU,1611462201,85,55.105,55.3508,14.0,13.42
388,Monrovia,5,LR,1611462230,91,6.3005,-10.7969,76.64,6.04
389,Zeya,1,RU,1611462231,77,53.75,127.2667,-4.83,5.19
390,Port Augusta,99,AU,1611462231,9,-32.5,137.7667,108.0,19.57
391,Naze,20,JP,1611462231,68,28.3667,129.4833,69.8,19.57
392,Kibala,0,TD,1611462231,45,9.1104,18.3463,66.2,6.06
393,Diego de Almagro,0,CL,1611462088,40,-26.3667,-70.05,60.8,1.48
394,Chifeng,0,CN,1611462205,88,42.2683,118.9636,31.42,1.99
395,Fort Nelson,90,CA,1611462231,78,58.8053,-122.7002,-2.2,6.91
396,Pringsewu,100,ID,1611462231,76,-5.3582,104.9744,81.05,5.99
397,Aykhal,13,RU,1611461963,80,66.0,111.5,-35.03,4.29
398,Yamada,100,JP,1611462231,75,39.4667,141.95,38.44,3.42
399,Wucheng,35,CN,1611462123,74,29.6008,118.175,54.0,3.29
400,Bela Vista,57,BR,1611461943,91,-22.1089,-56.5211,72.52,4.72
401,Faya,2,SA,1611462231,45,18.3851,42.4509,46.4,1.23
402,Oranjemund,87,NA,1611462231,84,-28.55,16.4333,63.12,22.39
403,Argos,1,GR,1611462231,76,37.6333,22.7333,48.9,5.48
404,San Andrés,20,CO,1611462232,83,12.5847,-81.7006,80.6,12.66
405,Czersk,100,PL,1611462232,94,53.7959,17.9765,33.01,3.09
406,Vila Velha,20,BR,1611462046,88,-20.3297,-40.2925,73.4,4.61
407,Pevek,97,RU,1611462232,88,69.7008,170.3133,-19.01,4.5
408,Parrita,0,CR,1611462232,64,9.5201,-84.3225,68.0,10.36
409,Niono,63,ML,1611462232,24,14.2526,-5.993,62.19,9.84
410,Sisimiut,0,GL,1611462232,78,66.9395,-53.6735,16.3,4.63
411,Porto Torres,75,IT,1611462232,88,40.835,8.3972,55.4,18.41
412,Brainerd,90,US,1611462232,86,46.358,-94.2008,17.6,5.75
413,Batemans Bay,15,AU,1611462232,69,-35.7167,150.1833,86.0,7.0
414,Sabha,0,LY,1611462232,51,27.0377,14.4283,45.39,2.73
415,Carauari,77,BR,1611462232,97,-4.8828,-66.8958,72.91,2.66
416,Marsh Harbour,1,BS,1611462036,78,26.5412,-77.0636,72.72,10.22
417,Camacha,40,PT,1611462232,94,33.0833,-16.3333,60.8,3.44
418,Kandrian,94,PG,1611462233,57,-6.2167,149.55,89.67,9.04
419,Rio Grande,84,BR,1611462233,89,-32.035,-52.0986,73.0,9.66
420,Kruisfontein,100,ZA,1611462233,91,-34.0033,24.7314,64.0,1.99
421,Umluj,1,SA,1611462233,42,25.0213,37.2685,69.42,9.6
422,Agadez,0,NE,1611462233,36,19.75,10.25,51.49,9.22
423,Kopavogur,20,IS,1611462233,69,64.1123,-21.913,30.2,19.57
424,Mehamn,100,NO,1611462025,93,71.0357,27.8492,18.18,23.35
425,Puri,48,IN,1611462233,69,19.8,85.85,75.2,3.44
426,Goderich,100,CA,1611462090,79,43.7501,-81.7165,21.2,4.61
427,Kamina,100,CD,1611462030,99,-8.7386,24.9906,62.67,3.15
428,Nantucket,20,US,1611462229,58,41.2835,-70.0995,21.99,23.02
429,Pacific Grove,75,US,1611462139,81,36.6177,-121.9166,51.01,4.61
430,Lucea,20,JM,1611462233,83,18.451,-78.1736,77.0,2.3
431,Kuala Lipis,70,MY,1611462233,64,4.1842,102.0468,83.41,1.32
432,Eureka,90,US,1611462107,81,40.8021,-124.1637,46.99,11.32
433,Bonthe,0,SL,1611462234,89,7.5264,-12.505,74.73,5.39
434,Galle,23,LK,1611462234,74,6.0367,80.217,79.97,1.39
435,Nakonde,100,ZM,1611462234,96,-9.3421,32.745,59.02,1.92
436,Westport,0,US,1611462234,57,41.1415,-73.3579,23.0,15.9
437,Sørland,44,NO,1611462234,93,67.667,12.6934,26.64,12.48
438,Hambantota,40,LK,1611462234,83,6.1241,81.1185,80.6,10.36
439,Berlevåg,98,NO,1611462234,94,70.8578,29.0864,19.02,24.85
440,Indaiatuba,0,BR,1611462234,88,-23.0903,-47.2181,73.99,4.61
441,Atbasar,91,KZ,1611462234,86,51.8,68.3333,-16.94,3.33
442,Togur,53,RU,1611462071,76,58.3631,82.8265,-49.22,5.37
443,Ulladulla,40,AU,1611462234,36,-35.35,150.4667,97.0,12.66
444,Nacala,100,MZ,1611462234,88,-14.5428,40.6728,78.17,6.15
445,Kempele,90,FI,1611462235,93,64.9131,25.5034,23.0,5.75
446,Yumen,100,CN,1611462235,80,40.2833,97.2,22.62,24.32
447,Tabou,1,CI,1611462235,89,4.423,-7.3528,76.86,5.1
448,Sechura,78,PE,1611462235,73,-5.5569,-80.8222,74.37,10.25
449,Bathsheba,40,BB,1611462235,73,13.2167,-59.5167,77.0,12.66
450,Tuatapere,95,NZ,1611462235,78,-46.1333,167.6833,60.01,21.99
451,Bayaguana,20,DO,1611462235,94,18.7564,-69.6362,77.0,3.44
452,Los Llanos de Aridane,20,ES,1611462235,77,28.6585,-17.9182,62.6,9.22
453,Morąg,100,PL,1611462235,96,53.9171,19.926,33.22,7.2
454,Bireun,3,ID,1611462235,67,5.203,96.7009,82.56,2.89
455,Allen,75,US,1611462235,63,41.0706,-85.0144,27.0,8.05
456,La Ronge,0,CA,1611462235,68,55.1001,-105.2842,-27.4,2.59
457,Grand Gaube,4,MU,1611462235,69,-20.0064,57.6608,84.0,1.99
458,Inverell,0,AU,1611462236,26,-29.7833,151.1167,93.0,5.01
459,Alyangula,75,AU,1611462236,100,-13.8483,136.4192,78.8,8.05
460,Chokurdakh,100,RU,1611462003,83,70.6333,147.9167,-35.75,7.31
461,Arenápolis,88,BR,1611462236,86,-14.4503,-56.8461,72.86,0.89
462,Kilindoni,100,TZ,1611462236,81,-7.9139,39.6668,80.92,9.73
463,The Valley,40,AI,1611462236,83,18.217,-63.0578,77.0,4.61
464,Bilibino,49,RU,1611462032,80,68.0546,166.4372,-34.06,1.59
465,Mahajanga,20,MG,1611462236,78,-15.7167,46.3167,80.6,2.3
466,Boda,51,CF,1611462236,32,4.3189,17.4695,68.58,3.58
467,Mezen',100,RU,1611462236,93,65.8522,44.24,1.42,7.4
468,Valparaíso,90,CL,1611462236,100,-33.0393,-71.6273,59.0,2.3
469,Dunedin,74,NZ,1611462236,62,-45.8742,170.5036,68.0,4.0
470,Marsabit,27,KE,1611462236,89,2.3284,37.9899,62.73,12.3
471,Znamenskoye,45,RU,1611462236,80,57.1281,73.8282,-43.31,3.91
472,Umm Kaddadah,69,SD,1611462237,29,13.6017,26.6876,63.01,17.0
473,Emba,98,KZ,1611462237,95,48.8264,58.1442,9.46,10.0
474,Nelson Bay,24,AU,1611462237,26,-32.7167,152.15,100.0,9.22
475,Khlevnoye,90,RU,1611462237,100,52.1951,39.0932,33.8,8.95
476,Marathon,90,US,1611462237,79,44.9,-89.7668,16.0,5.75
477,Kabalo,100,CD,1611462237,96,-6.05,26.9167,68.09,0.63
478,Orkney,93,ZA,1611462237,70,-26.9802,26.6727,67.71,6.29
479,Nhulunbuy,90,AU,1611462237,94,-12.2333,136.7667,78.8,8.05
480,Aksarayskiy,75,RU,1611462237,81,46.7924,48.0119,37.4,11.18
481,Ayorou,50,NE,1611462237,24,14.7308,0.9174,64.13,10.31
482,Nouadhibou,100,MR,1611462028,49,20.931,-17.0347,68.65,12.86
483,Keti Bandar,0,PK,1611462237,20,24.1447,67.4497,65.79,11.25
484,Esil,90,KZ,1611462237,84,51.9556,66.4042,-14.1,4.5
485,Markova,100,UA,1611462238,81,48.6758,24.4138,39.43,3.62
486,Urussanga,99,BR,1611462238,79,-28.5178,-49.3208,71.31,4.38
487,Eufaula,90,US,1611462141,71,31.8913,-85.1455,52.0,5.14
488,Inírida,100,CO,1611462238,94,3.8653,-67.9239,73.72,2.62
489,Limulan,100,PH,1611462238,65,6.5853,124.0619,85.17,7.14
490,Evensk,99,RU,1611462238,81,61.95,159.2333,-15.61,8.3
491,Barstow,90,US,1611462238,76,34.8986,-117.0228,44.6,5.75
492,Ouango,96,CF,1611462238,33,4.3133,22.5552,75.56,2.28
493,Boddam,5,GB,1611462238,86,57.4667,-1.7833,28.0,6.91
494,Caetés,87,BR,1611462238,91,-8.7731,-36.6225,65.23,8.9
495,Derzhavīnsk,89,KZ,1611462238,89,51.1,66.3167,-11.36,4.85
496,Nālūt,0,LY,1611462059,60,30.3333,10.85,45.54,5.68
497,Pisco,0,PE,1611461991,73,-13.7,-76.2167,71.6,6.91
498,Bulawayo,100,ZW,1611462239,84,-20.15,28.5833,64.24,6.4
499,Lyubech,100,UA,1611462239,97,51.7026,30.6569,34.93,13.82
500,Ridgecrest,90,US,1611461941,57,35.6225,-117.6709,45.0,4.61
501,Barra do Bugres,100,BR,1611462239,93,-15.0725,-57.1811,74.17,1.12
502,Kemijärvi,100,FI,1611462239,96,66.7131,27.4306,14.25,5.99
503,Nelson,100,NZ,1611462239,53,-41.2833,173.2833,73.0,1.99
504,Inuvik,0,CA,1611462239,76,68.3499,-133.7218,-16.6,8.05
505,Palau,75,PW,1611462239,70,7.503,134.621,86.0,12.66
506,Hobyo,89,SO,1611462239,69,5.3505,48.5268,76.86,21.39
507,Itarema,80,BR,1611462083,84,-2.9248,-39.9167,78.66,8.86
508,Broome,90,US,1611462239,79,42.2506,-75.833,19.0,13.8
509,Anderson,90,US,1611462234,39,34.5334,-82.6499,44.6,5.75
510,Zhangjiakou Shi Xuanhua Qu,0,CN,1611462239,71,40.6103,115.0447,34.32,2.39
511,Bogale,0,MM,1611462240,36,16.2833,95.4,82.31,1.34
512,Muros,97,ES,1611462240,86,42.7762,-9.0603,52.0,1.99
513,Conceição do Araguaia,4,BR,1611462009,89,-8.2578,-49.2647,73.92,0.34
514,Paraul,0,RU,1611462240,86,42.7419,47.3553,30.2,6.71
515,Senador Guiomard,75,BR,1611462240,100,-10.1522,-67.7392,73.4,4.61
516,Marabu,40,MY,1611462240,79,4.4148,114.0089,84.2,6.91
517,Yatsuomachi-higashikumisaka,75,JP,1611462240,93,36.5667,137.1333,45.0,1.14
518,Nanortalik,0,GL,1611462240,89,60.1432,-45.2371,21.87,9.62
519,Sirte,0,LY,1611462240,73,31.2089,16.5887,58.32,4.36
520,Richards Bay,0,ZA,1611462240,76,-28.783,32.0377,78.71,7.49
521,Shimoda,75,JP,1611462240,87,34.6667,138.95,46.4,33.38
522,Meulaboh,2,ID,1611461983,66,4.1363,96.1285,85.41,1.9
523,San Jose,1,US,1611462148,76,37.3394,-121.895,46.99,2.17
524,Lolodorf,100,CM,1611462241,96,3.2333,10.7333,69.73,1.74
525,Binga,90,ZW,1611462241,87,-17.6203,27.3414,70.99,1.45
526,Khanbari,89,NP,1611462241,48,27.3747,87.2039,62.4,2.75
527,Belaya Gora,100,RU,1611462024,84,68.5333,146.4167,-30.44,5.44
528,Ilanskiy,75,RU,1611462241,91,56.2358,96.065,1.15,5.08
529,Ketchikan,90,US,1611462098,100,55.3422,-131.6461,33.8,3.44
530,Rocha,9,UY,1611462241,97,-34.4833,-54.3333,67.32,6.6
531,Torquay,100,GB,1611462241,96,50.4638,-3.5143,34.0,21.77
532,Khorixas,100,NA,1611462241,80,-20.3667,14.9667,64.89,5.26
533,Denpasar,40,ID,1611462174,74,-8.65,115.2167,86.0,9.22
534,Qaqortoq,0,GL,1611462241,29,60.7167,-46.0333,28.4,25.32
535,Salinas,1,US,1611462242,87,36.6777,-121.6555,50.0,6.91
536,Mount Gambier,94,AU,1611462005,9,-37.8333,140.7667,104.0,13.8
537,Prince Rupert,90,CA,1611462242,93,54.3161,-130.3201,37.4,4.61
538,Vitorino Freire,79,BR,1611462242,97,-4.0667,-45.1667,72.95,1.86
539,Tateyama,75,JP,1611462242,87,34.9833,139.8667,46.99,33.38
540,Shache,0,CN,1611462242,64,38.4167,77.2406,28.67,3.87
541,Takoradze,46,GH,1611462242,89,4.8845,-1.7554,77.29,6.11
542,Lianyuan,24,CN,1611462242,53,27.6883,111.6642,58.96,4.18
543,Kiryat Gat,0,IL,1611462242,65,31.61,34.7642,48.0,2.3
544,Agirish,100,RU,1611462242,83,61.9247,63.0231,-29.07,6.71
545,Wiarton,75,CA,1611462242,79,44.7407,-81.1332,15.8,6.91
546,Piaçabuçu,82,BR,1611462243,82,-10.4056,-36.4344,76.05,6.73
547,Wągrowiec,100,PL,1611462243,83,52.8084,17.1996,34.0,1.99
548,Rybnoye,100,RU,1611462243,98,54.7256,39.5119,33.4,6.04
549,Seoul,0,KR,1611462105,43,37.5683,126.9778,53.6,4.61
550,Xining,100,CN,1611462232,66,36.6167,101.7667,28.85,3.22
551,Charters Towers,0,AU,1611462243,35,-20.1,146.2667,87.03,9.75
552,Leh,100,IN,1611462197,76,34.1667,77.5833,12.06,1.41
553,Rio Claro,100,BR,1611462243,80,-22.4114,-47.5614,73.99,1.57
554,Penzance,20,GB,1611462243,87,50.1186,-5.5371,41.0,14.97
555,Caxito,20,AO,1611462243,88,-8.5785,13.6643,75.2,3.44
556,Toppenish,24,US,1611462243,85,46.3774,-120.3087,30.0,1.19
557,Tūkrah,0,LY,1611462243,60,32.5341,20.5791,53.87,10.92
558,Bentiu,88,SS,1611462244,26,9.2333,29.8333,69.85,4.43
559,Santa Luzia,0,BR,1611462244,68,-19.7697,-43.8514,69.8,8.05
560,Yangi Marg`ilon,98,UZ,1611462060,74,40.4272,71.7189,23.0,4.61
561,Tottori-shi,75,JP,1611462244,71,35.5,134.2333,48.2,19.57
562,Koumac,98,NC,1611462244,70,-20.5667,164.2833,84.36,10.65
563,Springfield,90,US,1611462132,48,37.2153,-93.2982,37.99,18.41
564,Gavrilov Posad,97,RU,1611462244,97,56.5597,40.1175,33.71,7.11
565,Timrå,90,SE,1611462244,93,62.487,17.3257,30.2,2.3
566,Masumbwe,87,TZ,1611462244,93,-3.6333,32.1833,61.79,0.36
567,Lynn Haven,90,US,1611462244,62,30.2455,-85.6483,57.99,3.44
568,Carutapera,63,BR,1611462244,83,-1.195,-46.02,78.37,7.76
569,Araouane,41,ML,1611462042,23,18.9048,-3.5265,60.42,10.56
570,Okhotsk,100,RU,1611462245,81,59.3833,143.3,-10.77,10.69
571,Morogoro,75,TZ,1611462245,94,-6.8167,37.6667,71.6,5.75
572,Kenscoff,40,HT,1611462245,88,18.4506,-72.2869,77.0,3.44
573,Pierre,1,US,1611462245,93,44.3683,-100.351,21.0,8.05
